{"results":[{"address_components":[{"long_name":"22","short_name":"22","types":["street_number"]},{"long_name":"Ånäsvägen","short_name":"Ånäsvägen","types":["route"]},{"long_name":"Bagaregården","short_name":"Bagaregården","types":["political","sublocality","sublocality_level_1"]},{"long_name":"Göteborg","short_name":"Göteborg","types":["locality","political"]},{"long_name":"Göteborg","short_name":"Göteborg","types":["postal_town"]},{"long_name":"Västra Götalands län","short_name":"Västra Götalands län","types":["administrative_area_level_1","political"]},{"long_name":"Sverige","short_name":"SE","types":["country","political"]},{"long_name":"416 67","short_name":"416 67","types":["postal_code"]}],"formatted_address":"Ånäsvägen 22, 416 67 Göteborg, Sverige","geometry":{"location":{"lat":57.71767,"lng":12.0046255},"location_type":"ROOFTOP","viewport":{"northeast":{"lat":57.7190189802915,"lng":12.0059744802915},"southwest":{"lat":57.71632101970849,"lng":12.0032765197085}}},"place_id":"ChIJ11i5F3z0T0YRgDdwKpoy4lc","types":["street_address"]},{"address_components":[{"long_name":"Bagaregården","short_name":"Bagaregården","types":["political","sublocality","sublocality_level_1"]},{"long_name":"Göteborg","short_name":"Göteborg","types":["locality","political"]},{"long_name":"Göteborg","short_name":"Göteborg","types":["administrative_area_level_2","political"]},{"long_name":"Västra Götalands län","short_name":"Västra Götalands län","types":["administrative_area_level_1","political"]},{"long_name":"Sverige","short_name":"SE","types":["country","political"]}],"formatted_address":"Bagaregården, Göteborg, Sverige","geometry":{"bounds":{"northeast":{"lat":57.7243979,"lng":12.0254861},"southwest":{"lat":57.709228,"lng":11.9935602}},"location":{"lat":57.716667,"lng":12.016667},"location_type":"APPROXIMATE","viewport":{"northeast":{"lat":57.7243979,"lng":12.0254861},"southwest":{"lat":57.709228,"lng":11.9935602}}},"place_id":"ChIJ4TQT2nv0T0YRWOsSRN4QE3w","types":["political","sublocality","sublocality_level_1"]},{"address_components":[{"long_name":"Göteborg","short_name":"Göteborg","types":["locality","political"]},{"long_name":"Göteborg","short_name":"Göteborg","types":["administrative_area_level_2","political"]},{"long_name":"Västra Götalands län","short_name":"Västra Götalands län","types":["administrative_area_level_1","political"]},{"long_name":"Sverige","short_name":"SE","types":["country","political"]}],"formatted_address":"Göteborg, Sverige","geometry":{"bounds":{"northeast":{"lat":57.863055,"lng":12.193316},"southwest":{"lat":57.5389291,"lng":11.594357}},"location":{"lat":57.70887,"lng":11.97456},"location_type":"APPROXIMATE","viewport":{"northeast":{"lat":57.863055,"lng":12.192838},"southwest":{"lat":57.5408589,"lng":11.5945269}}},"place_id":"ChIJPwdslmeOT0YRQHwOKXiQAQQ","types":["locality","political"]},{"address_components":[{"long_name":"416 67","short_name":"416 67","types":["postal_code"]},{"long_name":"Göteborg","short_name":"Göteborg","types":["locality","political"]},{"long_name":"Göteborg","short_name":"Göteborg","types":["postal_town"]},{"long_name":"Västra Götalands län","short_name":"Västra Götalands län","types":["administrative_area_level_1","political"]},{"long_name":"Sverige","short_name":"SE","types":["country","political"]}],"formatted_address":"416 67 Göteborg, Sverige","geometry":{"bounds":{"northeast":{"lat":57.720416,"lng":12.007561},"southwest":{"lat":57.7153101,"lng":12.0005119}},"location":{"lat":57.71767670000001,"lng":12.003342},"location_type":"APPROXIMATE","viewport":{"northeast":{"lat":57.720416,"lng":12.007561},"southwest":{"lat":57.7153101,"lng":12.0005119}}},"place_id":"ChIJt61tjXz0T0YRY1rgB3iQAQs","types":["postal_code"]},{"address_components":[{"long_name":"Göteborg","short_name":"Göteborg","types":["postal_town"]},{"long_name":"Västra Götalands län","short_name":"Västra Götalands län","types":["administrative_area_level_1","political"]},{"long_name":"Sverige","short_name":"SE","types":["country","political"]}],"formatted_address":"Göteborg, Sverige","geometry":{"bounds":{"northeast":{"lat":57.79029490000001,"lng":12.1055639},"southwest":{"lat":57.66720799999999,"lng":11.7939059}},"location":{"lat":57.7058708,"lng":11.9388136},"location_type":"APPROXIMATE","viewport":{"northeast":{"lat":57.79029490000001,"lng":12.1055639},"southwest":{"lat":57.66720799999999,"lng":11.7939059}}},"place_id":"ChIJTe4awGJiRUYRPPX8JcKpisU","types":["postal_town"]},{"address_components":[{"long_name":"Göteborg","short_name":"Göteborg","types":["administrative_area_level_2","political"]},{"long_name":"Västra Götalands län","short_name":"Västra Götalands län","types":["administrative_area_level_1","political"]},{"long_name":"Sverige","short_name":"SE","types":["country","political"]}],"formatted_address":"Göteborg, Sverige","geometry":{"bounds":{"northeast":{"lat":57.867944,"lng":12.216002},"southwest":{"lat":57.5068119,"lng":11.6931389}},"location":{"lat":57.7372915,"lng":11.9713569},"location_type":"APPROXIMATE","viewport":{"northeast":{"lat":57.867944,"lng":12.216002},"southwest":{"lat":57.5092279,"lng":11.6998109}}},"place_id":"ChIJf2rnIRTzT0YRjiyUaXB5Awc","types":["administrative_area_level_2","political"]},{"address_components":[{"long_name":"Västra Götalands län","short_name":"Västra Götalands län","types":["administrative_area_level_1","political"]},{"long_name":"Sverige","short_name":"SE","types":["country","political"]}],"formatted_address":"Västra Götalands län, Sverige","geometry":{"bounds":{"northeast":{"lat":59.26203409999999,"lng":14.717377},"southwest":{"lat":57.14008,"lng":10.961968}},"location":{"lat":58.2527926,"lng":13.0596425},"location_type":"APPROXIMATE","viewport":{"northeast":{"lat":59.26203409999999,"lng":14.7148095},"southwest":{"lat":57.14008,"lng":10.9636245}}},"place_id":"ChIJlRL-UXszRUYRcIsOKXiQAQM","types":["administrative_area_level_1","political"]},{"address_components":[{"long_name":"Sverige","short_name":"SE","types":["country","political"]}],"formatted_address":"Sverige","geometry":{"bounds":{"northeast":{"lat":69.0599709,"lng":24.1773102},"southwest":{"lat":55.0059799,"lng":10.5798}},"location":{"lat":60.12816100000001,"lng":18.643501},"location_type":"APPROXIMATE","viewport":{"northeast":{"lat":69.05916479999999,"lng":24.1616356},"southwest":{"lat":55.33860300000001,"lng":10.9639409}}},"place_id":"ChIJ8fA1bTmyXEYRYm-tjaLruCI","types":["country","political"]}],"status":"OK"}